{
    "stations" : [
        {
            "address" : "Skogvegen 4, 6480 Aukrasanden",
            "id": "1",
            "workingTime": "",
            "image": "",
            "lat": "62.79344",
            "lng": "6.91505",
            "name": "Falkhytten v/Spar",
            "region": "Aukra"
        },
        {
            "address" : "Aukraringen 2, 6480 Aukra",
            "id": "2",
            "workingTime": "",
            "image": "",
            "lat": "62.80887",
            "lng": "6.88678",
            "name": "Falkhytten v/Coop",
            "region": "Aukra"
        },
        {
            "address" : "Rishaugvegen 96",
            "id" : "3",
            "workingTime" : "",
            "image" : "",
            "lat" : "62.84446",
            "lng" : "6.82361",
            "name" : "Rothaugen gjenvinningsstasjon",
            "region" : "Aukra"
        },
        {
            "address" : "Hollingen, 6409",
            "id" : "4",
            "workingTime" : "",
            "image" : "",
            "lat" : "62.78035",
            "lng" : "6.99125",
            "name" : "Hollingen hyttepunkt",
            "region" : "Aukra"
        },
        {
            "address" : "",
            "id" : "5",
            "workingTime" : "",
            "image" : "",
            "lat" : "",
            "lng" : "",
            "name" : "",
            "region" : "Aukra"
        },
        {
            "address" : "Coop Extra hollingen, 6409 Hollingen",
            "id" : "6",
            "workingTime" : "",
            "image" : "",
            "lat" : "62.78188",
            "lng" : "6.99050",
            "name" : "Hollingbygg",
            "region" : "Aukra"
        },
        {
            "address" : "Tausahaugvegen 2 Molde",
            "id" : "7",
            "workingTime" : "",
            "image" : "",
            "lat" : "62.78262",
            "lng" : "6.99420",
            "name" : "Hollingen",
            "region" : "Molde"
        },
        {
            "address" : "Trafovegen 85, 6409 Molde",
            "id" : "8",
            "workingTime" : "",
            "image" : "",
            "lat" : "62.78725",
            "lng" : "7.01242",
            "name" : "Jendem v/Joker",
            "region" : "Molde"
        },
        {
            "address" : "Aureosen, 6408",
            "id" : "9",
            "workingTime" : "",
            "image" : "",
            "lat" : "62.82070",
            "lng" : "7.09571",
            "name" : "Aureosen",
            "region" : "Molde"
        }
    ]
}
